<?xml version="1.0" encoding="utf-8"?>
<kml xmlns="http://earth.google.com/kml/2.2">
  <Document>
    <Placemark>
      <name>Belfast-Belfast Intl</name>
      <Point>
        <extrude>1</extrude>
        <altitudeMode>absolute</altitudeMode>
        <coordinates>-6.215833,54.6575,0.0</coordinates>
      </Point>
    </Placemark>
    <Placemark>
      <name>Enniskillen-St Angelo</name>
      <Point>
        <extrude>1</extrude>
        <altitudeMode>absolute</altitudeMode>
        <coordinates>-7.651667,54.398889,0.0</coordinates>
      </Point>
    </Placemark>
    <Placemark>
      <name>Belfast-Belfast City</name>
      <Point>
        <extrude>1</extrude>
        <altitudeMode>absolute</altitudeMode>
        <coordinates>-5.8725,54.618056,0.0</coordinates>
      </Point>
    </Placemark>
    <Placemark>
      <name>Londonderry-City of Derry</name>
      <Point>
        <extrude>1</extrude>
        <altitudeMode>absolute</altitudeMode>
        <coordinates>-7.161111,55.042778,0.0</coordinates>
      </Point>
    </Placemark>
    <Placemark>
      <name>Birmingham-Birmingham</name>
      <Point>
        <extrude>1</extrude>
        <altitudeMode>absolute</altitudeMode>
        <coordinates>-1.748028,52.453856,0.0</coordinates>
      </Point>
    </Placemark>
    <Placemark>
      <name>Coventry-Coventry</name>
      <Point>
        <extrude>1</extrude>
        <altitudeMode>absolute</altitudeMode>
        <coordinates>-1.479722,52.369722,0.0</coordinates>
      </Point>
    </Placemark>
    <Placemark>
      <name>Leicester-Leicester</name>
      <Point>
        <extrude>1</extrude>
        <altitudeMode>absolute</altitudeMode>
        <coordinates>-1.031944,52.607778,0.0</coordinates>
      </Point>
    </Placemark>
    <Placemark>
      <name>Golouchestershire-Gloucestershire</name>
      <Point>
        <extrude>1</extrude>
        <altitudeMode>absolute</altitudeMode>
        <coordinates>-2.167222,51.894167,0.0</coordinates>
      </Point>
    </Placemark>
    <Placemark>
      <name>Halfpenny Green-Wolverhampton</name>
      <Point>
        <extrude>1</extrude>
        <altitudeMode>absolute</altitudeMode>
        <coordinates>-2.259444,52.5175,0.0</coordinates>
      </Point>
    </Placemark>
    <Placemark>
      <name>Pailton-Kemble</name>
      <Point>
        <extrude>1</extrude>
        <altitudeMode>absolute</altitudeMode>
        <coordinates>-2.056944,51.668056,0.0</coordinates>
      </Point>
    </Placemark>
    <Placemark>
      <name>Turweston-Turweston</name>
      <Point>
        <extrude>1</extrude>
        <altitudeMode>absolute</altitudeMode>
        <coordinates>-1.095556,52.040833,0.0</coordinates>
      </Point>
    </Placemark>
    <Placemark>
      <name>Wellesbourne-Wellesbourne Mountford</name>
      <Point>
        <extrude>1</extrude>
        <altitudeMode>absolute</altitudeMode>
        <coordinates>-1.614444,52.192222,0.0</coordinates>
      </Point>
    </Placemark>
    <Placemark>
      <name>Manchester-Manchester</name>
      <Point>
        <extrude>1</extrude>
        <altitudeMode>absolute</altitudeMode>
        <coordinates>-2.27495,53.353744,0.0</coordinates>
      </Point>
    </Placemark>
    <Placemark>
      <name>Woodfort-Manchester Woodford</name>
      <Point>
        <extrude>1</extrude>
        <altitudeMode>absolute</altitudeMode>
        <coordinates>-2.148889,53.338056,0.0</coordinates>
      </Point>
    </Placemark>
    <Placemark>
      <name>Chivenor-Chivenor</name>
      <Point>
        <extrude>1</extrude>
        <altitudeMode>absolute</altitudeMode>
        <coordinates>-4.150339,51.087167,0.0</coordinates>
      </Point>
    </Placemark>
    <Placemark>
      <name>Newquai-St Mawgan</name>
      <Point>
        <extrude>1</extrude>
        <altitudeMode>absolute</altitudeMode>
        <coordinates>-4.995408,50.440558,0.0</coordinates>
      </Point>
    </Placemark>
    <Placemark>
      <name>Lyneham-Lyneham</name>
      <Point>
        <extrude>1</extrude>
        <altitudeMode>absolute</altitudeMode>
        <coordinates>-1.993428,51.505144,0.0</coordinates>
      </Point>
    </Placemark>
    <Placemark>
      <name>Boscombe Down-Boscombe Down</name>
      <Point>
        <extrude>1</extrude>
        <altitudeMode>absolute</altitudeMode>
        <coordinates>-1.747414,51.152189,0.0</coordinates>
      </Point>
    </Placemark>
    <Placemark>
      <name>Culdrose-Culdrose</name>
      <Point>
        <extrude>1</extrude>
        <altitudeMode>absolute</altitudeMode>
        <coordinates>-5.255711,50.086092,0.0</coordinates>
      </Point>
    </Placemark>
    <Placemark>
      <name>St. Athan-St Athan</name>
      <Point>
        <extrude>1</extrude>
        <altitudeMode>absolute</altitudeMode>
        <coordinates>-3.43575,51.404811,0.0</coordinates>
      </Point>
    </Placemark>
    <Placemark>
      <name>Yeovilton-Yeovilton</name>
      <Point>
        <extrude>1</extrude>
        <altitudeMode>absolute</altitudeMode>
        <coordinates>-2.638819,51.009358,0.0</coordinates>
      </Point>
    </Placemark>
    <Placemark>
      <name>Haverfordwest-Haverfordwest</name>
      <Point>
        <extrude>1</extrude>
        <altitudeMode>absolute</altitudeMode>
        <coordinates>-4.961111,51.833056,0.0</coordinates>
      </Point>
    </Placemark>
    <Placemark>
      <name>Cardiff-Cardiff</name>
      <Point>
        <extrude>1</extrude>
        <altitudeMode>absolute</altitudeMode>
        <coordinates>-3.343333,51.396667,0.0</coordinates>
      </Point>
    </Placemark>
    <Placemark>
      <name>Swansea-Swansea</name>
      <Point>
        <extrude>1</extrude>
        <altitudeMode>absolute</altitudeMode>
        <coordinates>-4.067833,51.605333,0.0</coordinates>
      </Point>
    </Placemark>
    <Placemark>
      <name>Bristol-Bristol</name>
      <Point>
        <extrude>1</extrude>
        <altitudeMode>absolute</altitudeMode>
        <coordinates>-2.719089,51.382669,0.0</coordinates>
      </Point>
    </Placemark>
    <Placemark>
      <name>Liverpool-Liverpool</name>
      <Point>
        <extrude>1</extrude>
        <altitudeMode>absolute</altitudeMode>
        <coordinates>-2.849722,53.333611,0.0</coordinates>
      </Point>
    </Placemark>
    <Placemark>
      <name>London-Luton</name>
      <Point>
        <extrude>1</extrude>
        <altitudeMode>absolute</altitudeMode>
        <coordinates>-0.368333,51.874722,0.0</coordinates>
      </Point>
    </Placemark>
    <Placemark>
      <name>Plymouth-Plymouth</name>
      <Point>
        <extrude>1</extrude>
        <altitudeMode>absolute</altitudeMode>
        <coordinates>-4.105833,50.422778,0.0</coordinates>
      </Point>
    </Placemark>
    <Placemark>
      <name>Bournemouth-Bournemouth</name>
      <Point>
        <extrude>1</extrude>
        <altitudeMode>absolute</altitudeMode>
        <coordinates>-1.8425,50.78,0.0</coordinates>
      </Point>
    </Placemark>
    <Placemark>
      <name>Southampton-Southampton</name>
      <Point>
        <extrude>1</extrude>
        <altitudeMode>absolute</altitudeMode>
        <coordinates>-1.356803,50.950261,0.0</coordinates>
      </Point>
    </Placemark>
    <Placemark>
      <name>Lasham-Lasham</name>
      <Point>
        <extrude>1</extrude>
        <altitudeMode>absolute</altitudeMode>
        <coordinates>-1.0335,51.187167,0.0</coordinates>
      </Point>
    </Placemark>
    <Placemark>
      <name>Shoreham By Sea-Shoreham</name>
      <Point>
        <extrude>1</extrude>
        <altitudeMode>absolute</altitudeMode>
        <coordinates>-0.297222,50.835556,0.0</coordinates>
      </Point>
    </Placemark>
    <Placemark>
      <name>Biggin Hill-Biggin Hill</name>
      <Point>
        <extrude>1</extrude>
        <altitudeMode>absolute</altitudeMode>
        <coordinates>0.0325,51.330833,0.0</coordinates>
      </Point>
    </Placemark>
    <Placemark>
      <name>London-Gatwick</name>
      <Point>
        <extrude>1</extrude>
        <altitudeMode>absolute</altitudeMode>
        <coordinates>-0.190278,51.148056,0.0</coordinates>
      </Point>
    </Placemark>
    <Placemark>
      <name>London-City</name>
      <Point>
        <extrude>1</extrude>
        <altitudeMode>absolute</altitudeMode>
        <coordinates>0.055278,51.505278,0.0</coordinates>
      </Point>
    </Placemark>
    <Placemark>
      <name>Farnborough-Farnborough</name>
      <Point>
        <extrude>1</extrude>
        <altitudeMode>absolute</altitudeMode>
        <coordinates>-0.776333,51.275833,0.0</coordinates>
      </Point>
    </Placemark>
    <Placemark>
      <name>Chalsgrove-Chalgrove</name>
      <Point>
        <extrude>1</extrude>
        <altitudeMode>absolute</altitudeMode>
        <coordinates>-1.080833,51.676111,0.0</coordinates>
      </Point>
    </Placemark>
    <Placemark>
      <name>Blackbushe-Blackbushe</name>
      <Point>
        <extrude>1</extrude>
        <altitudeMode>absolute</altitudeMode>
        <coordinates>-0.8475,51.323889,0.0</coordinates>
      </Point>
    </Placemark>
    <Placemark>
      <name>London-Heathrow</name>
      <Point>
        <extrude>1</extrude>
        <altitudeMode>absolute</altitudeMode>
        <coordinates>-0.461389,51.4775,0.0</coordinates>
      </Point>
    </Placemark>
    <Placemark>
      <name>Southend-Southend</name>
      <Point>
        <extrude>1</extrude>
        <altitudeMode>absolute</altitudeMode>
        <coordinates>0.695556,51.571389,0.0</coordinates>
      </Point>
    </Placemark>
    <Placemark>
      <name>Lydd-Lydd</name>
      <Point>
        <extrude>1</extrude>
        <altitudeMode>absolute</altitudeMode>
        <coordinates>0.939167,50.956111,0.0</coordinates>
      </Point>
    </Placemark>
    <Placemark>
      <name>Manston-Manston</name>
      <Point>
        <extrude>1</extrude>
        <altitudeMode>absolute</altitudeMode>
        <coordinates>1.346111,51.342222,0.0</coordinates>
      </Point>
    </Placemark>
    <Placemark>
      <name>Brough-Brough</name>
      <Point>
        <extrude>1</extrude>
        <altitudeMode>absolute</altitudeMode>
        <coordinates>-0.566333,53.719667,0.0</coordinates>
      </Point>
    </Placemark>
    <Placemark>
      <name>Carlisle-Carlisle</name>
      <Point>
        <extrude>1</extrude>
        <altitudeMode>absolute</altitudeMode>
        <coordinates>-2.809167,54.9375,0.0</coordinates>
      </Point>
    </Placemark>
    <Placemark>
      <name>Repton-Gamston</name>
      <Point>
        <extrude>1</extrude>
        <altitudeMode>absolute</altitudeMode>
        <coordinates>-0.951389,53.280556,0.0</coordinates>
      </Point>
    </Placemark>
    <Placemark>
      <name>Blackpool-Blackpool</name>
      <Point>
        <extrude>1</extrude>
        <altitudeMode>absolute</altitudeMode>
        <coordinates>-3.028611,53.771667,0.0</coordinates>
      </Point>
    </Placemark>
    <Placemark>
      <name>Humberside-Humberside</name>
      <Point>
        <extrude>1</extrude>
        <altitudeMode>absolute</altitudeMode>
        <coordinates>-0.350833,53.574444,0.0</coordinates>
      </Point>
    </Placemark>
    <Placemark>
      <name>Barrow Island-Walney Island</name>
      <Point>
        <extrude>1</extrude>
        <altitudeMode>absolute</altitudeMode>
        <coordinates>-3.263667,54.131167,0.0</coordinates>
      </Point>
    </Placemark>
    <Placemark>
      <name>Leeds-Leeds Bradford</name>
      <Point>
        <extrude>1</extrude>
        <altitudeMode>absolute</altitudeMode>
        <coordinates>-1.660569,53.865897,0.0</coordinates>
      </Point>
    </Placemark>
    <Placemark>
      <name>Warton-Warton</name>
      <Point>
        <extrude>1</extrude>
        <altitudeMode>absolute</altitudeMode>
        <coordinates>-2.883061,53.745097,0.0</coordinates>
      </Point>
    </Placemark>
    <Placemark>
      <name>Hawarden-Hawarden</name>
      <Point>
        <extrude>1</extrude>
        <altitudeMode>absolute</altitudeMode>
        <coordinates>-2.977778,53.178056,0.0</coordinates>
      </Point>
    </Placemark>
    <Placemark>
      <name>Newcastle-Newcastle</name>
      <Point>
        <extrude>1</extrude>
        <altitudeMode>absolute</altitudeMode>
        <coordinates>-1.691667,55.0375,0.0</coordinates>
      </Point>
    </Placemark>
    <Placemark>
      <name>Teesside-Durham Tees Valley Airport</name>
      <Point>
        <extrude>1</extrude>
        <altitudeMode>absolute</altitudeMode>
        <coordinates>-1.429406,54.509189,0.0</coordinates>
      </Point>
    </Placemark>
    <Placemark>
      <name>East Midlands-Nottingham East Midlands</name>
      <Point>
        <extrude>1</extrude>
        <altitudeMode>absolute</altitudeMode>
        <coordinates>-1.328056,52.831111,0.0</coordinates>
      </Point>
    </Placemark>
    <Placemark>
      <name>Llanbedr-Llanbedr</name>
      <Point>
        <extrude>1</extrude>
        <altitudeMode>absolute</altitudeMode>
        <coordinates>-4.123575,52.811744,0.0</coordinates>
      </Point>
    </Placemark>
    <Placemark>
      <name>Ternhill-Ternhill</name>
      <Point>
        <extrude>1</extrude>
        <altitudeMode>absolute</altitudeMode>
        <coordinates>-2.533561,52.871164,0.0</coordinates>
      </Point>
    </Placemark>
    <Placemark>
      <name>Shawbury-Shawbury</name>
      <Point>
        <extrude>1</extrude>
        <altitudeMode>absolute</altitudeMode>
        <coordinates>-2.668042,52.798169,0.0</coordinates>
      </Point>
    </Placemark>
    <Placemark>
      <name>Woodvale-Woodvale</name>
      <Point>
        <extrude>1</extrude>
        <altitudeMode>absolute</altitudeMode>
        <coordinates>-3.055522,53.581575,0.0</coordinates>
      </Point>
    </Placemark>
    <Placemark>
      <name>Kirkwall-Kirkwall</name>
      <Point>
        <extrude>1</extrude>
        <altitudeMode>absolute</altitudeMode>
        <coordinates>-2.905,58.957778,0.0</coordinates>
      </Point>
    </Placemark>
    <Placemark>
      <name>Sumburgh-Sumburgh</name>
      <Point>
        <extrude>1</extrude>
        <altitudeMode>absolute</altitudeMode>
        <coordinates>-1.295556,59.878889,0.0</coordinates>
      </Point>
    </Placemark>
    <Placemark>
      <name>Wick-Wick</name>
      <Point>
        <extrude>1</extrude>
        <altitudeMode>absolute</altitudeMode>
        <coordinates>-3.093056,58.458889,0.0</coordinates>
      </Point>
    </Placemark>
    <Placemark>
      <name>Aberdeen-Dyce</name>
      <Point>
        <extrude>1</extrude>
        <altitudeMode>absolute</altitudeMode>
        <coordinates>-2.197778,57.201944,0.0</coordinates>
      </Point>
    </Placemark>
    <Placemark>
      <name>Inverness-Inverness</name>
      <Point>
        <extrude>1</extrude>
        <altitudeMode>absolute</altitudeMode>
        <coordinates>-4.0475,57.5425,0.0</coordinates>
      </Point>
    </Placemark>
    <Placemark>
      <name>Glasgow-Glasgow</name>
      <Point>
        <extrude>1</extrude>
        <altitudeMode>absolute</altitudeMode>
        <coordinates>-4.433056,55.871944,0.0</coordinates>
      </Point>
    </Placemark>
    <Placemark>
      <name>Edinburgh-Edinburgh</name>
      <Point>
        <extrude>1</extrude>
        <altitudeMode>absolute</altitudeMode>
        <coordinates>-3.3725,55.95,0.0</coordinates>
      </Point>
    </Placemark>
    <Placemark>
      <name>Islay-Islay</name>
      <Point>
        <extrude>1</extrude>
        <altitudeMode>absolute</altitudeMode>
        <coordinates>-6.256667,55.681944,0.0</coordinates>
      </Point>
    </Placemark>
    <Placemark>
      <name>Prestwick-Prestwick</name>
      <Point>
        <extrude>1</extrude>
        <altitudeMode>absolute</altitudeMode>
        <coordinates>-4.586667,55.509444,0.0</coordinates>
      </Point>
    </Placemark>
    <Placemark>
      <name>Benbecula-Benbecula</name>
      <Point>
        <extrude>1</extrude>
        <altitudeMode>absolute</altitudeMode>
        <coordinates>-7.362778,57.481111,0.0</coordinates>
      </Point>
    </Placemark>
    <Placemark>
      <name>Scatsta-Scatsta</name>
      <Point>
        <extrude>1</extrude>
        <altitudeMode>absolute</altitudeMode>
        <coordinates>-1.296111,60.432778,0.0</coordinates>
      </Point>
    </Placemark>
    <Placemark>
      <name>Dundee-Dundee</name>
      <Point>
        <extrude>1</extrude>
        <altitudeMode>absolute</altitudeMode>
        <coordinates>-3.025833,56.452499,0.0</coordinates>
      </Point>
    </Placemark>
    <Placemark>
      <name>Stornoway-Stornoway</name>
      <Point>
        <extrude>1</extrude>
        <altitudeMode>absolute</altitudeMode>
        <coordinates>-6.331111,58.215556,0.0</coordinates>
      </Point>
    </Placemark>
    <Placemark>
      <name>Tiree-Tiree</name>
      <Point>
        <extrude>1</extrude>
        <altitudeMode>absolute</altitudeMode>
        <coordinates>-6.869167,56.499167,0.0</coordinates>
      </Point>
    </Placemark>
    <Placemark>
      <name>Leuchars-Leuchars</name>
      <Point>
        <extrude>1</extrude>
        <altitudeMode>absolute</altitudeMode>
        <coordinates>-2.868444,56.372889,0.0</coordinates>
      </Point>
    </Placemark>
    <Placemark>
      <name>Lossiemouth-Lossiemouth</name>
      <Point>
        <extrude>1</extrude>
        <altitudeMode>absolute</altitudeMode>
        <coordinates>-3.339169,57.705214,0.0</coordinates>
      </Point>
    </Placemark>
    <Placemark>
      <name>Cambridge-Cambridge</name>
      <Point>
        <extrude>1</extrude>
        <altitudeMode>absolute</altitudeMode>
        <coordinates>0.175,52.205,0.0</coordinates>
      </Point>
    </Placemark>
    <Placemark>
      <name>Peterborough-Conington</name>
      <Point>
        <extrude>1</extrude>
        <altitudeMode>absolute</altitudeMode>
        <coordinates>-0.251111,52.468056,0.0</coordinates>
      </Point>
    </Placemark>
    <Placemark>
      <name>Norwich-Norwich</name>
      <Point>
        <extrude>1</extrude>
        <altitudeMode>absolute</altitudeMode>
        <coordinates>1.282778,52.675833,0.0</coordinates>
      </Point>
    </Placemark>
    <Placemark>
      <name>London-Stansted</name>
      <Point>
        <extrude>1</extrude>
        <altitudeMode>absolute</altitudeMode>
        <coordinates>0.235,51.885,0.0</coordinates>
      </Point>
    </Placemark>
    <Placemark>
      <name>North Weald-North Weald</name>
      <Point>
        <extrude>1</extrude>
        <altitudeMode>absolute</altitudeMode>
        <coordinates>0.154167,51.721667,0.0</coordinates>
      </Point>
    </Placemark>
    <Placemark>
      <name>Fowlmere-Sheffield City</name>
      <Point>
        <extrude>1</extrude>
        <altitudeMode>absolute</altitudeMode>
        <coordinates>-1.388486,53.394256,0.0</coordinates>
      </Point>
    </Placemark>
    <Placemark>
      <name>Cranfield-Cranfield</name>
      <Point>
        <extrude>1</extrude>
        <altitudeMode>absolute</altitudeMode>
        <coordinates>-0.616667,52.072222,0.0</coordinates>
      </Point>
    </Placemark>
    <Placemark>
      <name>Exeter-Exeter</name>
      <Point>
        <extrude>1</extrude>
        <altitudeMode>absolute</altitudeMode>
        <coordinates>-3.413889,50.734444,0.0</coordinates>
      </Point>
    </Placemark>
    <Placemark>
      <name>Bristol-Bristol Filton</name>
      <Point>
        <extrude>1</extrude>
        <altitudeMode>absolute</altitudeMode>
        <coordinates>-2.590833,51.519444,0.0</coordinates>
      </Point>
    </Placemark>
    <Placemark>
      <name>Oxford-Kidlington</name>
      <Point>
        <extrude>1</extrude>
        <altitudeMode>absolute</altitudeMode>
        <coordinates>-1.32,51.836944,0.0</coordinates>
      </Point>
    </Placemark>
    <Placemark>
      <name>Benson-Benson</name>
      <Point>
        <extrude>1</extrude>
        <altitudeMode>absolute</altitudeMode>
        <coordinates>-1.095833,51.616389,0.0</coordinates>
      </Point>
    </Placemark>
    <Placemark>
      <name>Lakenheath-Lakenheath</name>
      <Point>
        <extrude>1</extrude>
        <altitudeMode>absolute</altitudeMode>
        <coordinates>0.561,52.409333,0.0</coordinates>
      </Point>
    </Placemark>
    <Placemark>
      <name>Mildenhall-Mildenhall</name>
      <Point>
        <extrude>1</extrude>
        <altitudeMode>absolute</altitudeMode>
        <coordinates>0.486406,52.361933,0.0</coordinates>
      </Point>
    </Placemark>
    <Placemark>
      <name>Wattisham-Wattisham</name>
      <Point>
        <extrude>1</extrude>
        <altitudeMode>absolute</altitudeMode>
        <coordinates>0.956264,52.127283,0.0</coordinates>
      </Point>
    </Placemark>
    <Placemark>
      <name>Wyton-Wyton</name>
      <Point>
        <extrude>1</extrude>
        <altitudeMode>absolute</altitudeMode>
        <coordinates>-0.107833,52.357167,0.0</coordinates>
      </Point>
    </Placemark>
    <Placemark>
      <name>Fairford-Fairford</name>
      <Point>
        <extrude>1</extrude>
        <altitudeMode>absolute</altitudeMode>
        <coordinates>-1.790028,51.682167,0.0</coordinates>
      </Point>
    </Placemark>
    <Placemark>
      <name>Brize Norton-Brize Norton</name>
      <Point>
        <extrude>1</extrude>
        <altitudeMode>absolute</altitudeMode>
        <coordinates>-1.583617,51.749964,0.0</coordinates>
      </Point>
    </Placemark>
    <Placemark>
      <name>Odiham-Odiham</name>
      <Point>
        <extrude>1</extrude>
        <altitudeMode>absolute</altitudeMode>
        <coordinates>-0.942825,51.234139,0.0</coordinates>
      </Point>
    </Placemark>
    <Placemark>
      <name>Cosford-Cosford</name>
      <Point>
        <extrude>1</extrude>
        <altitudeMode>absolute</altitudeMode>
        <coordinates>-2.305578,52.640028,0.0</coordinates>
      </Point>
    </Placemark>
    <Placemark>
      <name>Northolt-Northolt</name>
      <Point>
        <extrude>1</extrude>
        <altitudeMode>absolute</altitudeMode>
        <coordinates>-0.418167,51.553,0.0</coordinates>
      </Point>
    </Placemark>
    <Placemark>
      <name>Coningsby-Coningsby</name>
      <Point>
        <extrude>1</extrude>
        <altitudeMode>absolute</altitudeMode>
        <coordinates>-0.166014,53.093014,0.0</coordinates>
      </Point>
    </Placemark>
    <Placemark>
      <name>Dishforth-Dishforth</name>
      <Point>
        <extrude>1</extrude>
        <altitudeMode>absolute</altitudeMode>
        <coordinates>-1.420253,54.137186,0.0</coordinates>
      </Point>
    </Placemark>
    <Placemark>
      <name>Leeming-Leeming</name>
      <Point>
        <extrude>1</extrude>
        <altitudeMode>absolute</altitudeMode>
        <coordinates>-1.5354,54.292383,0.0</coordinates>
      </Point>
    </Placemark>
    <Placemark>
      <name>Church Fenton-Church Fenton</name>
      <Point>
        <extrude>1</extrude>
        <altitudeMode>absolute</altitudeMode>
        <coordinates>-1.1955,53.834333,0.0</coordinates>
      </Point>
    </Placemark>
    <Placemark>
      <name>Honington-Honington</name>
      <Point>
        <extrude>1</extrude>
        <altitudeMode>absolute</altitudeMode>
        <coordinates>0.772939,52.342611,0.0</coordinates>
      </Point>
    </Placemark>
    <Placemark>
      <name>Cottesmore-Cottesmore</name>
      <Point>
        <extrude>1</extrude>
        <altitudeMode>absolute</altitudeMode>
        <coordinates>-0.648769,52.735711,0.0</coordinates>
      </Point>
    </Placemark>
    <Placemark>
      <name>Scampton-Scampton</name>
      <Point>
        <extrude>1</extrude>
        <altitudeMode>absolute</altitudeMode>
        <coordinates>-0.550833,53.307778,0.0</coordinates>
      </Point>
    </Placemark>
    <Placemark>
      <name>Wittering-Wittering</name>
      <Point>
        <extrude>1</extrude>
        <altitudeMode>absolute</altitudeMode>
        <coordinates>-0.476453,52.612558,0.0</coordinates>
      </Point>
    </Placemark>
    <Placemark>
      <name>Linton-on-ouse-Linton On Ouse</name>
      <Point>
        <extrude>1</extrude>
        <altitudeMode>absolute</altitudeMode>
        <coordinates>-1.252747,54.048911,0.0</coordinates>
      </Point>
    </Placemark>
    <Placemark>
      <name>Waddington-Waddington</name>
      <Point>
        <extrude>1</extrude>
        <altitudeMode>absolute</altitudeMode>
        <coordinates>-0.523811,53.166167,0.0</coordinates>
      </Point>
    </Placemark>
    <Placemark>
      <name>Topcliffe-Topcliffe</name>
      <Point>
        <extrude>1</extrude>
        <altitudeMode>absolute</altitudeMode>
        <coordinates>-1.382094,54.205522,0.0</coordinates>
      </Point>
    </Placemark>
    <Placemark>
      <name>Cranwell-Cranwell</name>
      <Point>
        <extrude>1</extrude>
        <altitudeMode>absolute</altitudeMode>
        <coordinates>-0.483242,53.03035,0.0</coordinates>
      </Point>
    </Placemark>
    <Placemark>
      <name>Barkston Heath-Barkston Heath</name>
      <Point>
        <extrude>1</extrude>
        <altitudeMode>absolute</altitudeMode>
        <coordinates>-0.561625,52.962225,0.0</coordinates>
      </Point>
    </Placemark>
    <Placemark>
      <name>Marham-Marham</name>
      <Point>
        <extrude>1</extrude>
        <altitudeMode>absolute</altitudeMode>
        <coordinates>0.550692,52.648353,0.0</coordinates>
      </Point>
    </Placemark>
    <Placemark>
      <name>Lympne-Ashford</name>
      <Point>
        <extrude>1</extrude>
        <altitudeMode>absolute</altitudeMode>
        <coordinates>1.016667,51.083333,0.0</coordinates>
      </Point>
    </Placemark>
    <Placemark>
      <name>WATTON-RNAS WATTON</name>
      <Point>
        <extrude>1</extrude>
        <altitudeMode>absolute</altitudeMode>
        <coordinates>0.51,52.33,0.0</coordinates>
      </Point>
    </Placemark>
    <Placemark>
      <name>Barra-Barra Airport</name>
      <Point>
        <extrude>1</extrude>
        <altitudeMode>absolute</altitudeMode>
        <coordinates>-7.44306,57.0228,0.0</coordinates>
      </Point>
    </Placemark>
    <Placemark>
      <name>Angelsey-Anglesey Airport</name>
      <Point>
        <extrude>1</extrude>
        <altitudeMode>absolute</altitudeMode>
        <coordinates>-4.535339,53.248097,0.0</coordinates>
      </Point>
    </Placemark>
    <Placemark>
      <name>Penzance-Penzance Heliport</name>
      <Point>
        <extrude>1</extrude>
        <altitudeMode>absolute</altitudeMode>
        <coordinates>-5.51845,50.1281,0.0</coordinates>
      </Point>
    </Placemark>
    <Placemark>
      <name>Land's End-Land's End / St. Just Airport</name>
      <Point>
        <extrude>1</extrude>
        <altitudeMode>absolute</altitudeMode>
        <coordinates>-5.67056,50.1028,0.0</coordinates>
      </Point>
    </Placemark>
    <Placemark>
      <name>Westray-Westray Airport</name>
      <Point>
        <extrude>1</extrude>
        <altitudeMode>absolute</altitudeMode>
        <coordinates>-2.95,59.3503,0.0</coordinates>
      </Point>
    </Placemark>
    <Placemark>
      <name>Lerwick-Lerwick / Tingwall Airport</name>
      <Point>
        <extrude>1</extrude>
        <altitudeMode>absolute</altitudeMode>
        <coordinates>-1.24361,60.1922,0.0</coordinates>
      </Point>
    </Placemark>
    <Placemark>
      <name>Sanday-Sanday Airport</name>
      <Point>
        <extrude>1</extrude>
        <altitudeMode>absolute</altitudeMode>
        <coordinates>-2.57667,59.2503,0.0</coordinates>
      </Point>
    </Placemark>
    <Placemark>
      <name>Stronsay-Stronsay Airport</name>
      <Point>
        <extrude>1</extrude>
        <altitudeMode>absolute</altitudeMode>
        <coordinates>-2.64139,59.1553,0.0</coordinates>
      </Point>
    </Placemark>
    <Placemark>
      <name>Papa Westray-Papa Westray Airport</name>
      <Point>
        <extrude>1</extrude>
        <altitudeMode>absolute</altitudeMode>
        <coordinates>-2.90028,59.3517,0.0</coordinates>
      </Point>
    </Placemark>
    <Placemark>
      <name>North Ronaldsay-North Ronaldsay Airport</name>
      <Point>
        <extrude>1</extrude>
        <altitudeMode>absolute</altitudeMode>
        <coordinates>-2.43444,59.3675,0.0</coordinates>
      </Point>
    </Placemark>
    <Placemark>
      <name>Fair Isle-Fair Isle Airport</name>
      <Point>
        <extrude>1</extrude>
        <altitudeMode>absolute</altitudeMode>
        <coordinates>-1.62806,59.5358,0.0</coordinates>
      </Point>
    </Placemark>
    <Placemark>
      <name>Eday-Eday Airport</name>
      <Point>
        <extrude>1</extrude>
        <altitudeMode>absolute</altitudeMode>
        <coordinates>-2.77222,59.1906,0.0</coordinates>
      </Point>
    </Placemark>
    <Placemark>
      <name>Campbeltown-Campbeltown Airport</name>
      <Point>
        <extrude>1</extrude>
        <altitudeMode>absolute</altitudeMode>
        <coordinates>-5.68639,55.4372,0.0</coordinates>
      </Point>
    </Placemark>
    <Placemark>
      <name>Doncaster, Sheffield-Robin Hood Doncaster Sheffield Airport</name>
      <Point>
        <extrude>1</extrude>
        <altitudeMode>absolute</altitudeMode>
        <coordinates>-1.004444,53.474722,0.0</coordinates>
      </Point>
    </Placemark>
    <Placemark>
      <name>Nottingham-Nottingham Airport</name>
      <Point>
        <extrude>1</extrude>
        <altitudeMode>absolute</altitudeMode>
        <coordinates>-1.079167,52.92,0.0</coordinates>
      </Point>
    </Placemark>
    <Placemark>
      <name>Unst-Unst Airport</name>
      <Point>
        <extrude>1</extrude>
        <altitudeMode>absolute</altitudeMode>
        <coordinates>-0.85385,60.7472,0.0</coordinates>
      </Point>
    </Placemark>
    <Placemark>
      <name>North Connel-Oban Airport</name>
      <Point>
        <extrude>1</extrude>
        <altitudeMode>absolute</altitudeMode>
        <coordinates>-5.4,56.464,0.0</coordinates>
      </Point>
    </Placemark>
    <Placemark>
      <name>Isle Of Wight-Sandown</name>
      <Point>
        <extrude>1</extrude>
        <altitudeMode>absolute</altitudeMode>
        <coordinates>-1.317803,50.677776,0.0</coordinates>
      </Point>
    </Placemark>
    <Placemark>
      <name>Colonsay-Colonsay Airport</name>
      <Point>
        <extrude>1</extrude>
        <altitudeMode>absolute</altitudeMode>
        <coordinates>-6.243056,56.0575,0.0</coordinates>
      </Point>
    </Placemark>
    <Placemark>
      <name>Tresco-Tresco Heliport</name>
      <Point>
        <extrude>1</extrude>
        <altitudeMode>absolute</altitudeMode>
        <coordinates>-6.331389,49.945556,0.0</coordinates>
      </Point>
    </Placemark>
    <Placemark>
      <name>London-London Heliport</name>
      <Point>
        <extrude>1</extrude>
        <altitudeMode>absolute</altitudeMode>
        <coordinates>-0.177833,51.47,0.0</coordinates>
      </Point>
    </Placemark>
    <Placemark>
      <name>Maidenhead-White Waltham Airfield</name>
      <Point>
        <extrude>1</extrude>
        <altitudeMode>absolute</altitudeMode>
        <coordinates>-0.774,51.501,0.0</coordinates>
      </Point>
    </Placemark>
    <Placemark>
      <name>Wycombe-Booker</name>
      <Point>
        <extrude>1</extrude>
        <altitudeMode>absolute</altitudeMode>
        <coordinates>-0.808056,51.611667,0.0</coordinates>
      </Point>
    </Placemark>
    <Placemark>
      <name>Bembridge-Bembridge</name>
      <Point>
        <extrude>1</extrude>
        <altitudeMode>absolute</altitudeMode>
        <coordinates>-1.109444,50.677778,0.0</coordinates>
      </Point>
    </Placemark>
    <Placemark>
      <name>Shaftesbury-Shaftesbury-Compton Abbas Aerodrome</name>
      <Point>
        <extrude>1</extrude>
        <altitudeMode>absolute</altitudeMode>
        <coordinates>-2.1536,50.9672,0.0</coordinates>
      </Point>
    </Placemark>
    <Placemark>
      <name>Glasgow-Glasgow City Heliport</name>
      <Point>
        <extrude>1</extrude>
        <altitudeMode>absolute</altitudeMode>
        <coordinates>-4.1749,55.5141,0.0</coordinates>
      </Point>
    </Placemark>
    <Placemark>
      <name>Claymore-North Sea</name>
      <Point>
        <extrude>1</extrude>
        <altitudeMode>absolute</altitudeMode>
        <coordinates>-0.2536,58.4494,0.0</coordinates>
      </Point>
    </Placemark>
    <Placemark>
      <name>FPSO Anasuria-North Sea</name>
      <Point>
        <extrude>1</extrude>
        <altitudeMode>absolute</altitudeMode>
        <coordinates>0.0483,57.1524,0.0</coordinates>
      </Point>
    </Placemark>
    <Placemark>
      <name>BP Bruce-North Sea</name>
      <Point>
        <extrude>1</extrude>
        <altitudeMode>absolute</altitudeMode>
        <coordinates>2.33,58.44,0.0</coordinates>
      </Point>
    </Placemark>
    <Placemark>
      <name>Buchan Alpha-North Sea</name>
      <Point>
        <extrude>1</extrude>
        <altitudeMode>absolute</altitudeMode>
        <coordinates>0.0319,57.9039,0.0</coordinates>
      </Point>
    </Placemark>
    <Placemark>
      <name>Buzzard-North Sea</name>
      <Point>
        <extrude>1</extrude>
        <altitudeMode>absolute</altitudeMode>
        <coordinates>0.766,56.8,0.0</coordinates>
      </Point>
    </Placemark>
    <Placemark>
      <name>Clyde-North Sea</name>
      <Point>
        <extrude>1</extrude>
        <altitudeMode>absolute</altitudeMode>
        <coordinates>2.2833,56.45,0.0</coordinates>
      </Point>
    </Placemark>
    <Placemark>
      <name>Cormorant Alpha-North Sea</name>
      <Point>
        <extrude>1</extrude>
        <altitudeMode>absolute</altitudeMode>
        <coordinates>-1.15,61.2333,0.0</coordinates>
      </Point>
    </Placemark>
    <Placemark>
      <name>Forties Alpha-North Sea</name>
      <Point>
        <extrude>1</extrude>
        <altitudeMode>absolute</altitudeMode>
        <coordinates>-1.0167,57.7167,0.0</coordinates>
      </Point>
    </Placemark>
    <Placemark>
      <name>Forties Charlie-North Sea</name>
      <Point>
        <extrude>1</extrude>
        <altitudeMode>absolute</altitudeMode>
        <coordinates>-1.0167,57.7167,0.0</coordinates>
      </Point>
    </Placemark>
    <Placemark>
      <name>Fulmar-North Sea</name>
      <Point>
        <extrude>1</extrude>
        <altitudeMode>absolute</altitudeMode>
        <coordinates>2.13,56.48,0.0</coordinates>
      </Point>
    </Placemark>
    <Placemark>
      <name>Gannet Alpha-North Sea</name>
      <Point>
        <extrude>1</extrude>
        <altitudeMode>absolute</altitudeMode>
        <coordinates>1.2,57.3,0.0</coordinates>
      </Point>
    </Placemark>
    <Placemark>
      <name>Montrose Alpha-North Sea</name>
      <Point>
        <extrude>1</extrude>
        <altitudeMode>absolute</altitudeMode>
        <coordinates>1.3883,57.4506,0.0</coordinates>
      </Point>
    </Placemark>
    <Placemark>
      <name>Tern-North Sea</name>
      <Point>
        <extrude>1</extrude>
        <altitudeMode>absolute</altitudeMode>
        <coordinates>0.8333,61.3333,0.0</coordinates>
      </Point>
    </Placemark>
    <Placemark>
      <name>Perth-Perth Scone Airport</name>
      <Point>
        <extrude>1</extrude>
        <altitudeMode>absolute</altitudeMode>
        <coordinates>-3.371389,56.439722,0.0</coordinates>
      </Point>
    </Placemark>
    <Placemark>
      <name>Caernarfon-Caernarfon Airport</name>
      <Point>
        <extrude>1</extrude>
        <altitudeMode>absolute</altitudeMode>
        <coordinates>-4.340278,53.104167,0.0</coordinates>
      </Point>
    </Placemark>
    <Placemark>
      <name>Duxford-Duxford Aerodrome</name>
      <Point>
        <extrude>1</extrude>
        <altitudeMode>absolute</altitudeMode>
        <coordinates>0.13194,52.09083,0.0</coordinates>
      </Point>
    </Placemark>
    <Placemark>
      <name>Fairoaks-Woking</name>
      <Point>
        <extrude>1</extrude>
        <altitudeMode>absolute</altitudeMode>
        <coordinates>-0.558611,51.348056,0.0</coordinates>
      </Point>
    </Placemark>
    <Placemark>
      <name>Rochester-Rochester Airport</name>
      <Point>
        <extrude>1</extrude>
        <altitudeMode>absolute</altitudeMode>
        <coordinates>0.502778,51.351944,0.0</coordinates>
      </Point>
    </Placemark>
    <Placemark>
      <name>Rothera Research Station-Rothera Research Station</name>
      <Point>
        <extrude>1</extrude>
        <altitudeMode>absolute</altitudeMode>
        <coordinates>-68.08,-67.34,0.0</coordinates>
      </Point>
    </Placemark>
    <Placemark>
      <name>Beccles-Ellough</name>
      <Point>
        <extrude>1</extrude>
        <altitudeMode>absolute</altitudeMode>
        <coordinates>1.606944,52.438333,0.0</coordinates>
      </Point>
    </Placemark>
    <Placemark>
      <name>Brawdy-Brawdy RAF Airport</name>
      <Point>
        <extrude>1</extrude>
        <altitudeMode>absolute</altitudeMode>
        <coordinates>-5.12148,51.880462,0.0</coordinates>
      </Point>
    </Placemark>
    <Placemark>
      <name>Redhill-Redhill Aerodrome</name>
      <Point>
        <extrude>1</extrude>
        <altitudeMode>absolute</altitudeMode>
        <coordinates>-0.13861,51.213612,0.0</coordinates>
      </Point>
    </Placemark>
    <Placemark>
      <name>Enstone-Enstone</name>
      <Point>
        <extrude>1</extrude>
        <altitudeMode>absolute</altitudeMode>
        <coordinates>-1.4285,51.928167,0.0</coordinates>
      </Point>
    </Placemark>
    <Placemark>
      <name>Gryphon FPSO-North Sea</name>
      <Point>
        <extrude>1</extrude>
        <altitudeMode>absolute</altitudeMode>
        <coordinates>1.57,59.35,0.0</coordinates>
      </Point>
    </Placemark>
    <Placemark>
      <name>Elstree-Elstree</name>
      <Point>
        <extrude>1</extrude>
        <altitudeMode>absolute</altitudeMode>
        <coordinates>-0.00093,51.4807,0.0</coordinates>
      </Point>
    </Placemark>
    <Placemark>
      <name>Sandtoft-Sandtoft Airfield</name>
      <Point>
        <extrude>1</extrude>
        <altitudeMode>absolute</altitudeMode>
        <coordinates>-0.858332,53.559444,0.0</coordinates>
      </Point>
    </Placemark>
  </Document>
</kml>
